[
{"id" : "1",  "latitude" : "38.30365386",  "longitude" : "140.8495693",  "name" : "桜丘小学校",  "address" : "仙台市青葉区桜ケ丘8-1-1",  },
	{  "id" : "2",  "latitude" : "38.29633791",  "longitude" : "140.8395597",  "name" : "中山中学校",  "address" : "仙台市青葉区中山6-16-1",  },
	{  "id" : "3",  "latitude" : "38.29174713",  "longitude" : "140.8507201",  "name" : "中山小学校",  "address" : "仙台市青葉区中山1-6-1",  },
	{  "id" : "4",  "latitude" : "38.29276992",  "longitude" : "140.8635573",  "name" : "北仙台中学校",  "address" : "仙台市青葉区東勝山2-31-1",  },
	{  "id" : "5",  "latitude" : "38.28590798",  "longitude" : "140.8798745",  "name" : "台原小学校",  "address" : "仙台市青葉区台原5-16-1",  },
	{  "id" : "6",  "latitude" : "38.2966989",  "longitude" : "140.8860031",  "name" : "旭丘小学校",  "address" : "仙台市青葉区旭ケ丘3-27-1",  },
	{  "id" : "7",  "latitude" : "38.28659531",  "longitude" : "140.8572144",  "name" : "荒巻小学校",  "address" : "仙台市青葉区荒巻神明町21-1",  },
	{  "id" : "8",  "latitude" : "38.2768098",  "longitude" : "140.8446883",  "name" : "国見小学校",  "address" : "仙台市青葉区国見2-16-1",  },
	{  "id" : "9",  "latitude" : "38.28044312",  "longitude" : "140.8543371",  "name" : "三条中学校",  "address" : "仙台市青葉区三条町3-1",  },
	{  "id" : "10",  "latitude" : "38.27673287",  "longitude" : "140.8631334",  "name" : "通町小学校",  "address" : "仙台市青葉区通町1-1-1",  },
	{  "id" : "11",  "latitude" : "38.28045881",  "longitude" : "140.8889296",  "name" : "小松島小学校",  "address" : "仙台市青葉区小松島2-1-1",  },
	{  "id" : "12",  "latitude" : "38.27122745",  "longitude" : "140.8532237",  "name" : "八幡小学校",  "address" : "仙台市青葉区八幡2-9-1",  },
	{  "id" : "13",  "latitude" : "38.27092153",  "longitude" : "140.8635259",  "name" : "木町通小学校",  "address" : "仙台市青葉区木町通1-7-36",  },
	{  "id" : "14",  "latitude" : "38.27882772",  "longitude" : "140.8742483",  "name" : "上杉山中学校",  "address" : "仙台市青葉区上杉6-7-1",  },
	{  "id" : "15",  "latitude" : "38.27934478",  "longitude" : "140.8820138",  "name" : "五城中学校",  "address" : "仙台市青葉区東照宮1-3-1",  },
	{  "id" : "16",  "latitude" : "38.25607397",  "longitude" : "140.8690255",  "name" : "片平丁小学校",  "address" : "仙台市青葉区片平1-7-1",  },
	{  "id" : "17",  "latitude" : "38.26069481",  "longitude" : "140.8081785",  "name" : "折立小学校",  "address" : "仙台市青葉区折立4-2-1",  },
	{  "id" : "18",  "latitude" : "38.30557569",  "longitude" : "140.8379203",  "name" : "川平小学校",  "address" : "仙台市青葉区川平3-36-1",  },
	{  "id" : "19",  "latitude" : "38.26574325",  "longitude" : "140.8839232",  "name" : "東六番丁小学校",  "address" : "仙台市青葉区宮町1-2-1",  },
	{  "id" : "20",  "latitude" : "38.27593397",  "longitude" : "140.8822224",  "name" : "北六番丁小学校",  "address" : "仙台市青葉区宮町4-4-17",  },
	{  "id" : "21",  "latitude" : "38.28631965",  "longitude" : "140.8395938",  "name" : "貝森小学校",  "address" : "仙台市青葉区貝ケ森5-6-1",  },
	{  "id" : "22",  "latitude" : "38.27126471",  "longitude" : "140.77643",  "name" : "広瀬小学校",  "address" : "仙台市青葉区下愛子字二本松40",  },
	{  "id" : "23",  "latitude" : "38.27346288",  "longitude" : "140.7627081",  "name" : "広瀬中学校",  "address" : "仙台市青葉区愛子中央1-9-1",  },
	{  "id" : "24",  "latitude" : "38.28469217",  "longitude" : "140.6931455",  "name" : "上愛子小学校",  "address" : "仙台市青葉区上愛子字白沢14",  },
	{  "id" : "25",  "latitude" : "38.31642747",  "longitude" : "140.6358848",  "name" : "作並小学校",  "address" : "仙台市青葉区作並字北子原6",  },
	{  "id" : "26",  "latitude" : "38.30352273",  "longitude" : "140.6331141",  "name" : "作並小学校新川分校",  "address" : "仙台市青葉区新川字北野尻34",  },
	{  "id" : "27",  "latitude" : "38.33416048",  "longitude" : "140.6978724",  "name" : "大倉小学校",  "address" : "仙台市青葉区大倉字墓前1",  },
	{  "id" : "28",  "latitude" : "38.29020863",  "longitude" : "140.7470507",  "name" : "川前小学校",  "address" : "仙台市青葉区芋沢字赤坂16",  },
	{  "id" : "29",  "latitude" : "38.29932196",  "longitude" : "140.7732849",  "name" : "大沢小学校",  "address" : "仙台市青葉区芋沢字長坂22",  },
	{  "id" : "30",  "latitude" : "38.29161409",  "longitude" : "140.7504532",  "name" : "大沢中学校",  "address" : "仙台市青葉区赤坂1-2-1",  },
	{  "id" : "31",  "latitude" : "38.29036336",  "longitude" : "140.8252837",  "name" : "吉成小学校",  "address" : "仙台市青葉区吉成1-12-2",  },
	{  "id" : "32",  "latitude" : "38.28929404",  "longitude" : "140.8251144",  "name" : "吉成中学校",  "address" : "仙台市青葉区吉成1-12-1",  },
	{  "id" : "33",  "latitude" : "38.29122144",  "longitude" : "140.8138514",  "name" : "南吉成小学校",  "address" : "仙台市青葉区南吉成5-18-1",  },
	{  "id" : "34",  "latitude" : "38.27257703",  "longitude" : "140.8465772",  "name" : "第一中学校",  "address" : "仙台市青葉区八幡4-16-1",  },
	{  "id" : "35",  "latitude" : "38.27358045",  "longitude" : "140.8638557",  "name" : "第二中学校",  "address" : "仙台市青葉区木町通2-4-1",  },
	{  "id" : "36",  "latitude" : "38.26748774",  "longitude" : "140.7862072",  "name" : "栗生小学校",  "address" : "仙台市青葉区栗生6-6-1",  },
	{  "id" : "37",  "latitude" : "38.27150057",  "longitude" : "140.8735295",  "name" : "上杉山通小学校",  "address" : "仙台市青葉区上杉1-10-1",  },
	{  "id" : "38",  "latitude" : "38.29727188",  "longitude" : "140.8611379",  "name" : "北仙台小学校",  "address" : "仙台市青葉区東勝山3-6-1",  },
	{  "id" : "39",  "latitude" : "38.30411774",  "longitude" : "140.8515996",  "name" : "桜丘中学校",  "address" : "仙台市青葉区桜ケ丘8-2-1",  },
	{  "id" : "40",  "latitude" : "38.26175939",  "longitude" : "140.8637396",  "name" : "立町小学校",  "address" : "仙台市青葉区立町8-1",  },
	{  "id" : "41",  "latitude" : "38.25204416",  "longitude" : "140.8791886",  "name" : "五橋中学校",  "address" : "仙台市青葉区五橋2-2-1",  },
	{  "id" : "42",  "latitude" : "38.28697183",  "longitude" : "140.8806048",  "name" : "台原中学校",  "address" : "仙台市青葉区台原5-19-1",  },
	{  "id" : "43",  "latitude" : "38.29146861",  "longitude" : "140.8122432",  "name" : "南吉成中学校",  "address" : "仙台市青葉区南吉成5-18-2",  },
	{  "id" : "44",  "latitude" : "38.26596632",  "longitude" : "140.8076672",  "name" : "折立中学校",  "address" : "仙台市青葉区折立3-19-1",  },
	{  "id" : "45",  "latitude" : "38.28112839",  "longitude" : "140.8338474",  "name" : "仙台高等学校",  "address" : "仙台市青葉区国見6-52-1",  },
	{  "id" : "46",  "latitude" : "38.28864982",  "longitude" : "140.8359328",  "name" : "仙台市青陵中等教育学校",  "address" : "仙台市青葉区国見ケ丘7-144",  },
	{  "id" : "47",  "latitude" : "38.25942945",  "longitude" : "140.8747164",  "name" : "東二番丁小学校",  "address" : "仙台市青葉区一番町2-1-4",  },
	{  "id" : "48",  "latitude" : "38.29956126",  "longitude" : "140.6822606",  "name" : "広陵中学校",  "address" : "仙台市青葉区熊ヶ根字石積1-2",  },
	{  "id" : "49",  "latitude" : "38.2765539",  "longitude" : "140.8980514",  "name" : "幸町小学校",  "address" : "仙台市宮城野区幸町2-19-1",  },
	{  "id" : "50",  "latitude" : "38.29191052",  "longitude" : "140.914844",  "name" : "鶴谷中学校",  "address" : "仙台市宮城野区鶴ヶ谷5-24",  },
	{  "id" : "51",  "latitude" : "38.2772432",  "longitude" : "140.9176358",  "name" : "東仙台中学校",  "address" : "仙台市宮城野区東仙台2-16-1",  },
	{  "id" : "52",  "latitude" : "38.26129952",  "longitude" : "140.8907451",  "name" : "榴岡小学校",  "address" : "仙台市宮城野区東九番丁88-1",  },
	{  "id" : "53",  "latitude" : "38.26052219",  "longitude" : "140.9176066",  "name" : "仙台工業高等学校",  "address" : "仙台市宮城野区東宮城野3-1",  },
	{  "id" : "54",  "latitude" : "38.28818369",  "longitude" : "140.9298201",  "name" : "燕沢小学校",  "address" : "仙台市宮城野区燕沢東3-8-1",  },
	{  "id" : "55",  "latitude" : "38.27601018",  "longitude" : "140.9288125",  "name" : "新田小学校",  "address" : "仙台市宮城野区新田4-30-1",  },
	{  "id" : "56",  "latitude" : "38.29928291",  "longitude" : "140.942149",  "name" : "岩切小学校",  "address" : "仙台市宮城野区岩切字今市東1-2",  },
	{  "id" : "57",  "latitude" : "38.3014078",  "longitude" : "140.9446043",  "name" : "岩切中学校",  "address" : "仙台市宮城野区岩切字三所南23-2",  },
	{  "id" : "58",  "latitude" : "38.27334728",  "longitude" : "140.958038",  "name" : "高砂小学校",  "address" : "仙台市宮城野区福田町1-11-1",  },
	{  "id" : "59",  "latitude" : "38.2801977",  "longitude" : "140.9718621",  "name" : "福室小学校",  "address" : "仙台市宮城野区福室5-16-1",  },
	{  "id" : "60",  "latitude" : "38.28333126",  "longitude" : "140.9823748",  "name" : "中野栄小学校",  "address" : "仙台市宮城野区栄3-12-1",  },
	{  "id" : "61",  "latitude" : "38.25646702",  "longitude" : "140.9787592",  "name" : "岡田小学校",  "address" : "仙台市宮城野区岡田字北在家67",  },
	{  "id" : "62",  "latitude" : "38.28110904",  "longitude" : "140.9043561",  "name" : "枡江小学校",  "address" : "仙台市宮城野区枡江15-1",  },
	{  "id" : "63",  "latitude" : "38.26304059",  "longitude" : "140.9682406",  "name" : "鶴巻小学校",  "address" : "仙台市宮城野区鶴巻1-15-1",  },
	{  "id" : "64",  "latitude" : "38.28055526",  "longitude" : "140.9620153",  "name" : "田子小学校",  "address" : "仙台市宮城野区田子2-1-1",  },
	{  "id" : "65",  "latitude" : "38.27409865",  "longitude" : "140.8994543",  "name" : "幸町南小学校",  "address" : "仙台市宮城野区幸町5-2-1",  },
	{  "id" : "66",  "latitude" : "38.26085651",  "longitude" : "140.9160595",  "name" : "宮城野小学校",  "address" : "仙台市宮城野区東宮城野2-1",  },
	{  "id" : "67",  "latitude" : "38.26258511",  "longitude" : "140.8996544",  "name" : "宮城野中学校",  "address" : "仙台市宮城野区五輪1-4-25",  },
	{  "id" : "68",  "latitude" : "38.25432283",  "longitude" : "140.8994809",  "name" : "東華中学校",  "address" : "仙台市宮城野区宮城野2-14-27",  },
	{  "id" : "69",  "latitude" : "38.25918182",  "longitude" : "140.9194788",  "name" : "東宮城野小学校",  "address" : "仙台市宮城野区東宮城野5-1",  },
	{  "id" : "70",  "latitude" : "38.26666074",  "longitude" : "140.9036018",  "name" : "原町小学校",  "address" : "仙台市宮城野区原町2-6-1",  },
	{  "id" : "71",  "latitude" : "38.27722363",  "longitude" : "140.9126168",  "name" : "東仙台小学校",  "address" : "仙台市宮城野区東仙台5-26-1",  },
	{  "id" : "72",  "latitude" : "38.27717593",  "longitude" : "140.8937934",  "name" : "幸町中学校",  "address" : "仙台市宮城野区幸町1-15-1",  },
	{  "id" : "73",  "latitude" : "38.28344226",  "longitude" : "140.9148856",  "name" : "西山小学校",  "address" : "仙台市宮城野区燕沢2-23-1",  },
	{  "id" : "74",  "latitude" : "38.28282017",  "longitude" : "140.9167994",  "name" : "西山中学校",  "address" : "仙台市宮城野区燕沢2-21-1",  },
	{  "id" : "75",  "latitude" : "38.29069191",  "longitude" : "140.9099895",  "name" : "鶴谷小学校",  "address" : "仙台市宮城野区鶴ケ谷3-17",  },
	{  "id" : "76",  "latitude" : "38.29069058",  "longitude" : "140.91989",  "name" : "鶴谷東小学校",  "address" : "仙台市宮城野区鶴ケ谷6-2",  },
	{  "id" : "77",  "latitude" : "38.28264765",  "longitude" : "140.9759726",  "name" : "中野中学校",  "address" : "仙台市宮城野区中野字高橋前65",  },
	{  "id" : "78",  "latitude" : "38.27888013",  "longitude" : "140.957935",  "name" : "田子中学校",  "address" : "仙台市宮城野区田子2-12-1",  },
	{  "id" : "79",  "latitude" : "38.26455776",  "longitude" : "140.9769481",  "name" : "高砂中学校",  "address" : "仙台市宮城野区白鳥1-32-1",  },
	{  "id" : "80",  "latitude" : "38.24887784",  "longitude" : "140.8810386",  "name" : "荒町小学校",  "address" : "仙台市若林区荒町86",  },
	{  "id" : "81",  "latitude" : "38.25293348",  "longitude" : "140.8889709",  "name" : "連坊小路小学校",  "address" : "仙台市若林区連坊1-7-27",  },
	{  "id" : "82",  "latitude" : "38.24654095",  "longitude" : "140.9175964",  "name" : "大和小学校",  "address" : "仙台市若林区大和町3-16-1",  },
	{  "id" : "83",  "latitude" : "38.23817485",  "longitude" : "140.9125557",  "name" : "遠見塚小学校",  "address" : "仙台市若林区遠見塚1-22-1",  },
	{  "id" : "84",  "latitude" : "38.23655214",  "longitude" : "140.8971515",  "name" : "古城小学校",  "address" : "仙台市若林区古城2-1-1",  },
	{  "id" : "85",  "latitude" : "38.24059429",  "longitude" : "140.9426281",  "name" : "七郷小学校",  "address" : "仙台市若林区荒井字堀添53-2",  },
	{  "id" : "86",  "latitude" : "38.22221888",  "longitude" : "140.9803612",  "name" : "荒浜小学校",  "address" : "仙台市若林区荒浜字新堀端32-1",  },
	{  "id" : "87",  "latitude" : "38.22680545",  "longitude" : "140.9140964",  "name" : "沖野小学校",  "address" : "仙台市若林区沖野3-20-1",  },
	{  "id" : "88",  "latitude" : "38.21514457",  "longitude" : "140.9332245",  "name" : "六郷小学校",  "address" : "仙台市若林区六郷11-11",  },
	{  "id" : "89",  "latitude" : "38.24290247",  "longitude" : "140.9294845",  "name" : "蒲町小学校",  "address" : "仙台市若林区蒲町41-1",  },
	{  "id" : "90",  "latitude" : "38.24470175",  "longitude" : "140.9052032",  "name" : "南小泉小学校",  "address" : "仙台市若林区一本杉町17-10",  },
	{  "id" : "91",  "latitude" : "38.24368794",  "longitude" : "140.904931",  "name" : "南小泉中学校",  "address" : "仙台市若林区一本杉町2-1",  },
	{  "id" : "92",  "latitude" : "38.21378365",  "longitude" : "140.9342245",  "name" : "六郷中学校",  "address" : "仙台市若林区六郷13-1",  },
	{  "id" : "93",  "latitude" : "38.23724462",  "longitude" : "140.9461309",  "name" : "七郷中学校",  "address" : "仙台市若林区荒井字遠藤9-3",  },
	{  "id" : "94",  "latitude" : "38.19889738",  "longitude" : "140.9491153",  "name" : "東六郷小学校",  "address" : "仙台市若林区種次字山王前2-6",  },
	{  "id" : "95",  "latitude" : "38.22897859",  "longitude" : "140.9150587",  "name" : "沖野中学校",  "address" : "仙台市若林区沖野2-29-50",  },
	{  "id" : "96",  "latitude" : "38.22322386",  "longitude" : "140.9223139",  "name" : "沖野東小学校",  "address" : "仙台市若林区沖野字高野南89",  },
	{  "id" : "97",  "latitude" : "38.24125678",  "longitude" : "140.8894771",  "name" : "南材木町小学校",  "address" : "仙台市若林区南材木町84",  },
	{  "id" : "98",  "latitude" : "38.24114864",  "longitude" : "140.8924907",  "name" : "八軒中学校",  "address" : "仙台市若林区南小泉字八軒小路9-1",  },
	{  "id" : "99",  "latitude" : "38.22951689",  "longitude" : "140.8996433",  "name" : "若林小学校",  "address" : "仙台市若林区若林4-3-1",  },
	{  "id" : "100",  "latitude" : "38.24744931",  "longitude" : "140.9287926",  "name" : "蒲町中学校",  "address" : "仙台市若林区蒲町9-1",  },
	{  "id" : "101",  "latitude" : "38.24340003",  "longitude" : "140.8668069",  "name" : "向山小学校",  "address" : "仙台市太白区向山3-19-1",  },
	{  "id" : "102",  "latitude" : "38.24145849",  "longitude" : "140.8706818",  "name" : "愛宕中学校",  "address" : "仙台市太白区萩ケ丘9-1",  },
	{  "id" : "103",  "latitude" : "38.21672618",  "longitude" : "140.8744814",  "name" : "大野田小学校",  "address" : "仙台市太白区大野田字六反田10-5",  },
	{  "id" : "104",  "latitude" : "38.21994554",  "longitude" : "140.892408",  "name" : "郡山中学校",  "address" : "仙台市太白区郡山5-10-1",  },
	{  "id" : "105",  "latitude" : "38.22544534",  "longitude" : "140.8979613",  "name" : "八本松小学校",  "address" : "仙台市太白区八本松1-16-1",  },
	{  "id" : "106",  "latitude" : "38.23048227",  "longitude" : "140.8739149",  "name" : "長町中学校",  "address" : "仙台市太白区鹿野1-8-1",  },
	{  "id" : "107",  "latitude" : "38.21982278",  "longitude" : "140.8593045",  "name" : "西多賀小学校",  "address" : "仙台市太白区西多賀2-3-1",  },
	{  "id" : "108",  "latitude" : "38.23899786",  "longitude" : "140.8490944",  "name" : "八木山小学校",  "address" : "仙台市太白区八木山本町1-40-1",  },
	{  "id" : "109",  "latitude" : "38.23385669",  "longitude" : "140.8319547",  "name" : "八木山南小学校",  "address" : "仙台市太白区八木山南5-3-2",  },
	{  "id" : "110",  "latitude" : "38.2304408",  "longitude" : "140.8568601",  "name" : "芦口小学校",  "address" : "仙台市太白区芦の口1-1",  },
	{  "id" : "111",  "latitude" : "38.2290992",  "longitude" : "140.8489499",  "name" : "金剛沢小学校",  "address" : "仙台市太白区金剛沢1-1-1",  },
	{  "id" : "112",  "latitude" : "38.22072194",  "longitude" : "140.8266776",  "name" : "山田中学校",  "address" : "仙台市太白区山田北前町36-1",  },
	{  "id" : "113",  "latitude" : "38.23127334",  "longitude" : "140.8175063",  "name" : "太白小学校",  "address" : "仙台市太白区太白1-5-1",  },
	{  "id" : "114",  "latitude" : "38.21952103",  "longitude" : "140.7899785",  "name" : "生出中学校",  "address" : "仙台市太白区茂庭字中ノ瀬西2-2",  },
	{  "id" : "115",  "latitude" : "38.19998656",  "longitude" : "140.8876702",  "name" : "中田小学校",  "address" : "仙台市太白区中田4-1-1",  },
	{  "id" : "116",  "latitude" : "38.19393242",  "longitude" : "140.9106799",  "name" : "四郎丸小学校",  "address" : "仙台市太白区四郎丸字吹上6-3",  },
	{  "id" : "117",  "latitude" : "38.19604299",  "longitude" : "140.9024138",  "name" : "袋原小学校",  "address" : "仙台市太白区中田町字法地南4-2",  },
	{  "id" : "118",  "latitude" : "38.2316574",  "longitude" : "140.8806949",  "name" : "長町小学校",  "address" : "仙台市太白区長町4-6-1",  },
	{  "id" : "119",  "latitude" : "38.22887971",  "longitude" : "140.8704762",  "name" : "鹿野小学校",  "address" : "仙台市太白区鹿野2-9-1",  },
	{  "id" : "120",  "latitude" : "38.22682411",  "longitude" : "140.8294217",  "name" : "上野山小学校",  "address" : "仙台市太白区上野山1-20-1",  },
	{  "id" : "121",  "latitude" : "38.22615519",  "longitude" : "140.8520607",  "name" : "西多賀中学校",  "address" : "仙台市太白区西多賀3-10-1",  },
	{  "id" : "122",  "latitude" : "38.19880695",  "longitude" : "140.9129017",  "name" : "袋原中学校",  "address" : "仙台市太白区袋原4-27-1",  },
	{  "id" : "123",  "latitude" : "38.21682668",  "longitude" : "140.8995437",  "name" : "郡山小学校",  "address" : "仙台市太白区郡山字行新田1-1",  },
	{  "id" : "124",  "latitude" : "38.23726638",  "longitude" : "140.7838837",  "name" : "茂庭台小学校",  "address" : "仙台市太白区茂庭台4-17-1",  },
	{  "id" : "125",  "latitude" : "38.27021045",  "longitude" : "140.644003",  "name" : "馬場小学校",  "address" : "仙台市太白区秋保町馬場字町北25",  },
	{  "id" : "126",  "latitude" : "38.25592435",  "longitude" : "140.6801486",  "name" : "秋保小学校",  "address" : "仙台市太白区秋保町長袋字町15",  },
	{  "id" : "127",  "latitude" : "38.23057011",  "longitude" : "140.719489",  "name" : "湯元小学校",  "address" : "仙台市太白区秋保町湯向29-3",  },
	{  "id" : "128",  "latitude" : "38.2594515",  "longitude" : "140.6731182",  "name" : "秋保中学校",  "address" : "仙台市太白区秋保町長袋字大原45-5",  },
	{  "id" : "129",  "latitude" : "38.193333",  "longitude" : "140.9237817",  "name" : "東四郎丸小学校",  "address" : "仙台市太白区四郎丸字昭和北1",  },
	{  "id" : "130",  "latitude" : "38.19339516",  "longitude" : "140.8761435",  "name" : "西中田小学校",  "address" : "仙台市太白区西中田7-7-1",  },
	{  "id" : "131",  "latitude" : "38.22574144",  "longitude" : "140.8744537",  "name" : "長町南小学校",  "address" : "仙台市太白区長町7-23-1",  },
	{  "id" : "132",  "latitude" : "38.19184549",  "longitude" : "140.7715393",  "name" : "坪沼小学校",  "address" : "仙台市太白区坪沼字長田中9-1",  },
	{  "id" : "133",  "latitude" : "38.21828414",  "longitude" : "140.8637988",  "name" : "富沢中学校",  "address" : "仙台市太白区富沢2-4-1",  },
	{  "id" : "134",  "latitude" : "38.22466547",  "longitude" : "140.8093127",  "name" : "人来田小学校",  "address" : "仙台市太白区人来田1-1-1",  },
	{  "id" : "135",  "latitude" : "38.21893724",  "longitude" : "140.8892194",  "name" : "東長町小学校",  "address" : "仙台市太白区郡山6-5-1",  },
	{  "id" : "136",  "latitude" : "38.19602034",  "longitude" : "140.8895397",  "name" : "中田中学校",  "address" : "仙台市太白区中田5-15-1",  },
	{  "id" : "137",  "latitude" : "38.23748417",  "longitude" : "140.8464835",  "name" : "八木山中学校",  "address" : "仙台市太白区八木山東2-27-1",  },
	{  "id" : "138",  "latitude" : "38.22696788",  "longitude" : "140.8057853",  "name" : "人来田中学校",  "address" : "仙台市太白区人来田1-35-1",  },
	{  "id" : "139",  "latitude" : "38.21971376",  "longitude" : "140.7887691",  "name" : "生出小学校",  "address" : "仙台市太白区茂庭字中ノ瀬西5-2",  },
	{  "id" : "140",  "latitude" : "38.23429424",  "longitude" : "140.7782871",  "name" : "茂庭台中学校",  "address" : "仙台市太白区茂庭台5-3-1",  },
	{  "id" : "141",  "latitude" : "38.21654524",  "longitude" : "140.7553955",  "name" : "生出小学校赤石分校",  "address" : "仙台市太白区茂庭字合ノ沢南31",  },
	{  "id" : "142",  "latitude" : "38.18849259",  "longitude" : "140.8719275",  "name" : "柳生中学校",  "address" : "仙台市太白区柳生3-7-3",  },
	{  "id" : "143",  "latitude" : "38.1984391",  "longitude" : "140.8718547",  "name" : "柳生小学校",  "address" : "仙台市太白区柳生字台畑100",  },
	{  "id" : "144",  "latitude" : "38.34132943",  "longitude" : "140.7966837",  "name" : "根白石小学校",  "address" : "仙台市泉区根白石字杉下前15",  },
	{  "id" : "145",  "latitude" : "38.34095527",  "longitude" : "140.8453257",  "name" : "高森小学校",  "address" : "仙台市泉区高森3-1",  },
	{  "id" : "146",  "latitude" : "38.33338769",  "longitude" : "140.8826002",  "name" : "将監小学校",  "address" : "仙台市泉区将監3-10-1",  },
	{  "id" : "147",  "latitude" : "38.33659258",  "longitude" : "140.8737898",  "name" : "将監中央小学校",  "address" : "仙台市泉区将監10-3-1",  },
	{  "id" : "148",  "latitude" : "38.33482725",  "longitude" : "140.8977818",  "name" : "向陽台小学校",  "address" : "仙台市泉区向陽台5-6-12",  },
	{  "id" : "149",  "latitude" : "38.32279499",  "longitude" : "140.8925578",  "name" : "七北田小学校",  "address" : "仙台市泉区七北田字東裏90",  },
	{  "id" : "150",  "latitude" : "38.32418096",  "longitude" : "140.8929633",  "name" : "七北田中学校",  "address" : "仙台市泉区七北田字東裏100",  },
	{  "id" : "151",  "latitude" : "38.3194215",  "longitude" : "140.9192971",  "name" : "松森小学校",  "address" : "仙台市泉区鶴が丘2-2",  },
	{  "id" : "152",  "latitude" : "38.30791917",  "longitude" : "140.886442",  "name" : "黒松小学校",  "address" : "仙台市泉区黒松3-11-1",  },
	{  "id" : "153",  "latitude" : "38.30238959",  "longitude" : "140.8908972",  "name" : "八乙女中学校",  "address" : "仙台市泉区旭丘堤2-1-1",  },
	{  "id" : "154",  "latitude" : "38.300576",  "longitude" : "140.9006716",  "name" : "南光台小学校",  "address" : "仙台市泉区南光台7-10-1",  },
	{  "id" : "155",  "latitude" : "38.29846239",  "longitude" : "140.91186",  "name" : "南光台東小学校",  "address" : "仙台市泉区南光台東2-16-1",  },
	{  "id" : "156",  "latitude" : "38.3026813",  "longitude" : "140.9018965",  "name" : "南光台中学校",  "address" : "仙台市泉区南光台7-24-1",  },
	{  "id" : "157",  "latitude" : "38.35618231",  "longitude" : "140.8616042",  "name" : "泉ケ丘小学校",  "address" : "仙台市泉区明通4-12-1",  },
	{  "id" : "158",  "latitude" : "38.31336789",  "longitude" : "140.8547334",  "name" : "加茂小学校",  "address" : "仙台市泉区加茂4-3",  },
	{  "id" : "159",  "latitude" : "38.3071695",  "longitude" : "140.8950024",  "name" : "八乙女小学校",  "address" : "仙台市泉区松森字不動148",  },
	{  "id" : "160",  "latitude" : "38.31509458",  "longitude" : "140.9293131",  "name" : "鶴が丘小学校",  "address" : "仙台市泉区鶴が丘1-350",  },
	{  "id" : "161",  "latitude" : "38.34051052",  "longitude" : "140.8311466",  "name" : "寺岡中学校",  "address" : "仙台市泉区寺岡2-13-1",  },
	{  "id" : "162",  "latitude" : "38.30882792",  "longitude" : "140.822827",  "name" : "南中山小学校",  "address" : "仙台市泉区南中山2-24-14",  },
	{  "id" : "163",  "latitude" : "38.30749064",  "longitude" : "140.8732465",  "name" : "虹の丘小学校",  "address" : "仙台市泉区虹の丘1-10-1",  },
	{  "id" : "164",  "latitude" : "38.31251103",  "longitude" : "140.841225",  "name" : "長命ケ丘中学校",  "address" : "仙台市泉区長命ケ丘2-11-1",  },
	{  "id" : "165",  "latitude" : "38.31550073",  "longitude" : "140.8537458",  "name" : "加茂中学校",  "address" : "仙台市泉区加茂3-1",  },
	{  "id" : "166",  "latitude" : "38.31215328",  "longitude" : "140.7992937",  "name" : "館小学校",  "address" : "仙台市泉区館7-1-17",  },
	{  "id" : "167",  "latitude" : "38.32943348",  "longitude" : "140.7824498",  "name" : "住吉台小学校",  "address" : "仙台市泉区住吉台西4-1-1",  },
	{  "id" : "168",  "latitude" : "38.32490437",  "longitude" : "140.8611333",  "name" : "野村小学校",  "address" : "仙台市泉区野村字東原前7",  },
	{  "id" : "169",  "latitude" : "38.32853121",  "longitude" : "140.8211508",  "name" : "実沢小学校",  "address" : "仙台市泉区実沢字一本橋20",  },
	{  "id" : "170",  "latitude" : "38.35433082",  "longitude" : "140.7819039",  "name" : "福岡小学校",  "address" : "仙台市泉区福岡字堰添10",  },
	{  "id" : "171",  "latitude" : "38.33979715",  "longitude" : "140.8500225",  "name" : "高森中学校",  "address" : "仙台市泉区高森6-2",  },
	{  "id" : "172",  "latitude" : "38.3308809",  "longitude" : "140.9074726",  "name" : "泉松陵小学校",  "address" : "仙台市泉区松陵3-35",  },
	{  "id" : "173",  "latitude" : "38.31582145",  "longitude" : "140.8149161",  "name" : "北中山小学校",  "address" : "仙台市泉区北中山2-27-5",  },
	{  "id" : "174",  "latitude" : "38.33947924",  "longitude" : "140.8649119",  "name" : "桂小学校",  "address" : "仙台市泉区桂3-1-1",  },
	{  "id" : "175",  "latitude" : "38.31862718",  "longitude" : "140.9203415",  "name" : "鶴が丘中学校",  "address" : "仙台市泉区鶴が丘2-1-1",  },
	{  "id" : "176",  "latitude" : "38.32903701",  "longitude" : "140.9161664",  "name" : "松陵中学校",  "address" : "仙台市泉区松陵5-32",  },
	{  "id" : "177",  "latitude" : "38.30212045",  "longitude" : "140.9146567",  "name" : "南光台東中学校",  "address" : "仙台市泉区南光台東3-1-1",  },
	{  "id" : "178",  "latitude" : "38.33298615",  "longitude" : "140.9057616",  "name" : "向陽台中学校",  "address" : "仙台市泉区市名坂字天神沢38-4",  },
	{  "id" : "179",  "latitude" : "38.33270465",  "longitude" : "140.8870942",  "name" : "将監東中学校",  "address" : "仙台市泉区将監3-2-15",  },
	{  "id" : "180",  "latitude" : "38.33280118",  "longitude" : "140.8712624",  "name" : "将監中学校",  "address" : "仙台市泉区将監9-12-1",  },
	{  "id" : "181",  "latitude" : "38.33446485",  "longitude" : "140.8696903",  "name" : "将監西小学校",  "address" : "仙台市泉区将監10-29-1",  },
	{  "id" : "182",  "latitude" : "38.33920286",  "longitude" : "140.8549623",  "name" : "高森東小学校",  "address" : "仙台市泉区高森7-1-1",  },
	{  "id" : "183",  "latitude" : "38.3146886",  "longitude" : "140.8336866",  "name" : "長命ケ丘小学校",  "address" : "仙台市泉区長命ケ丘5-14-1",  },
	{  "id" : "184",  "latitude" : "38.30785588",  "longitude" : "140.8278988",  "name" : "南中山中学校",  "address" : "仙台市泉区南中山2-26-1",  },
	{  "id" : "185",  "latitude" : "38.34038268",  "longitude" : "140.8283885",  "name" : "寺岡小学校",  "address" : "仙台市泉区寺岡2-14-1",  },
	{  "id" : "186",  "latitude" : "38.32980623",  "longitude" : "140.7814246",  "name" : "住吉台中学校",  "address" : "仙台市泉区住吉台西4-1-2",  },
	{  "id" : "187",  "latitude" : "38.34680091",  "longitude" : "140.8020661",  "name" : "根白石中学校",  "address" : "仙台市泉区根白石字東鹿野54",  },
	{  "id" : "188",  "latitude" : "38.31745248",  "longitude" : "140.7992216",  "name" : "館中学校",  "address" : "仙台市泉区館6-17-1",  },
	{  "id" : "189",  "latitude" : "38.32389382",  "longitude" : "140.8716739",  "name" : "仙台商業高等学校",  "address" : "仙台市泉区七北田字古内75",  },
	{  "id" : "190",  "latitude" : "38.31796778",  "longitude" : "140.890722",  "name" : "市名坂小学校",  "address" : "仙台市泉区市名坂字高玉1",  },
	{  "id" : "191",  "latitude" : "38.26867895",  "longitude" : "140.7587647",  "name" : "愛子小学校",  "address" : "仙台市青葉区上愛子字新宮前１",  },
	{  "id" : "192",  "latitude" : "38.20968459",  "longitude" : "140.8626092",  "name" : "富沢小学校",  "address" : "仙台市太白区富沢字中河原17-１",  },
	{  "id" : "193",  "latitude" : "38.26287735",  "longitude" : "140.9007116",  "name" : "仙台大志高等学校",  "address" : "仙台市宮城野区五輪1-4-10",  },
	{  "id" : "194",  "latitude" : "38.28107685",  "longitude" : "140.8633048",  "name" : "通町公園",  "address" : "仙台市青葉区青葉町183-2",  },
	{  "id" : "195",  "latitude" : "38.26358765",  "longitude" : "140.8495641",  "name" : "広瀬川澱緑地",  "address" : "仙台市青葉区角五郎１丁目地先",  },
	{  "id" : "196",  "latitude" : "38.26843769",  "longitude" : "140.8412129",  "name" : "広瀬川牛越緑地",  "address" : "仙台市青葉区荒巻字三居沢地先",  },
	{  "id" : "197",  "latitude" : "38.27050162",  "longitude" : "140.8644433",  "name" : "北三番丁公園",  "address" : "仙台市青葉区木町通1-343",  },
	{  "id" : "198",  "latitude" : "38.26733893",  "longitude" : "140.8720106",  "name" : "勾当台公園",  "address" : "仙台市青葉区本町3-9-2 外",  },
	{  "id" : "199",  "latitude" : "38.26614362",  "longitude" : "140.875185",  "name" : "錦町公園",  "address" : "仙台市青葉区本町2-21-1",  },
	{  "id" : "200",  "latitude" : "38.27721967",  "longitude" : "140.8765701",  "name" : "宮城教育大学付属小・中学校",  "address" : "仙台市青葉区上杉6-4-1",  },
	{  "id" : "201",  "latitude" : "38.27125147",  "longitude" : "140.8798151",  "name" : "上杉公園",  "address" : "仙台市青葉区上杉4-239-3 外",  },
	{  "id" : "202",  "latitude" : "38.26931545",  "longitude" : "140.8904461",  "name" : "常盤木学園高等学校",  "address" : "仙台市青葉区小田原4-3-20",  },
	{  "id" : "203",  "latitude" : "38.25485758",  "longitude" : "140.8645957",  "name" : "評定河原グラウンド",  "address" : "仙台市青葉区花壇70-1",  },
	{  "id" : "204",  "latitude" : "38.27341867",  "longitude" : "140.7394572",  "name" : "宮城広瀬総合運動場",  "address" : "仙台市青葉区上愛子字松原39-1",  },
	{  "id" : "205",  "latitude" : "38.26367647",  "longitude" : "140.8570417",  "name" : "宮城県仙台第二高等学校",  "address" : "仙台市青葉区澱橋通1",  },
	{  "id" : "206",  "latitude" : "38.28871675",  "longitude" : "140.8454236",  "name" : "中山とびのこ公園",  "address" : "仙台市青葉区中山2丁目16-17番地内",  },
	{  "id" : "207",  "latitude" : "38.29660748",  "longitude" : "140.8339491",  "name" : "中山公園",  "address" : "仙台市青葉区中山7丁目21番地内",  },
	{  "id" : "208",  "latitude" : "38.30481025",  "longitude" : "140.8414275",  "name" : "朴沢学園サッカーグラウンド",  "address" : "仙台市青葉区川平3丁目21〜24番地内",  },
	{  "id" : "209",  "latitude" : "38.286252",  "longitude" : "140.9093095",  "name" : "宮城県仙台第三高等学校",  "address" : "仙台市宮城野区鶴ケ谷1-19",  },
	{  "id" : "210",  "latitude" : "38.27619276",  "longitude" : "140.9068095",  "name" : "宮城県消防学校",  "address" : "仙台市宮城野区幸町4-4-1",  },
	{  "id" : "211",  "latitude" : "38.26591555",  "longitude" : "140.8980256",  "name" : "地域避難場所（清水沼公園）",  "address" : "仙台市宮城野区清水沼1-17-1",  },
	{  "id" : "212",  "latitude" : "38.27163341",  "longitude" : "140.943137",  "name" : "扇町一丁目公園",  "address" : "仙台市宮城野区扇町1-4",  },
	{  "id" : "213",  "latitude" : "38.2636558",  "longitude" : "140.9333944",  "name" : "日の出町公園",  "address" : "仙台市宮城野区日の出町3-6",  },
	{  "id" : "214",  "latitude" : "38.26480329",  "longitude" : "140.9526888",  "name" : "扇町四丁目公園",  "address" : "仙台市宮城野区扇町4-9-1",  },
	{  "id" : "215",  "latitude" : "38.25937117",  "longitude" : "140.9609204",  "name" : "福田町南一丁目公園",  "address" : "仙台市宮城野区福田町南1-1007",  },
	{  "id" : "216",  "latitude" : "38.27081107",  "longitude" : "140.9724262",  "name" : "高砂一丁目公園",  "address" : "仙台市宮城野区高砂1-23-1",  },
	{  "id" : "217",  "latitude" : "38.27857651",  "longitude" : "140.9877384",  "name" : "出花二丁目公園",  "address" : "仙台市宮城野区出花2-7-9",  },
	{  "id" : "218",  "latitude" : "38.25075582",  "longitude" : "140.8927695",  "name" : "宮城県仙台第一高等学校",  "address" : "仙台市若林区元茶畑4",  },
	{  "id" : "219",  "latitude" : "38.25335193",  "longitude" : "140.8868855",  "name" : "宮城県仙台二華中学校・高等学校",  "address" : "仙台市若林区連坊1-4-1",  },
	{  "id" : "220",  "latitude" : "38.2515432",  "longitude" : "140.9017381",  "name" : "木ノ下公園",  "address" : "仙台市若林区木ノ下2-69",  },
	{  "id" : "221",  "latitude" : "38.2419698",  "longitude" : "140.8852508",  "name" : "広瀬川宮沢緑地",  "address" : "仙台市若林区堰場地先",  },
	{  "id" : "222",  "latitude" : "38.25547584",  "longitude" : "140.93126",  "name" : "卸町五丁目公園",  "address" : "仙台市若林区卸町5-4",  },
	{  "id" : "223",  "latitude" : "38.24942013",  "longitude" : "140.9414796",  "name" : "六丁の目南町公園",  "address" : "仙台市若林区六丁の目南町6-2",  },
	{  "id" : "224",  "latitude" : "38.2528859",  "longitude" : "140.9447135",  "name" : "六丁の目中町公園",  "address" : "仙台市若林区六丁の目中町29-1",  },
	{  "id" : "225",  "latitude" : "38.25156775",  "longitude" : "140.949436",  "name" : "六丁の目北町公園",  "address" : "仙台市若林区六丁の目北町9-3",  },
	{  "id" : "226",  "latitude" : "38.25298929",  "longitude" : "140.9390043",  "name" : "六丁の目中町西公園",  "address" : "仙台市若林区六丁の目中町9-1",  },
	{  "id" : "227",  "latitude" : "38.25918614",  "longitude" : "140.9479717",  "name" : "卸町東二丁目公園",  "address" : "仙台市若林区卸町東2-4-1",  },
	{  "id" : "228",  "latitude" : "38.23369314",  "longitude" : "140.9068908",  "name" : "南小泉公園",  "address" : "仙台市若林区古城3-209-7 外",  },
	{  "id" : "229",  "latitude" : "38.24687935",  "longitude" : "140.8745366",  "name" : "広瀬川愛宕緑地",  "address" : "仙台市太白区越路地内",  },
	{  "id" : "230",  "latitude" : "38.23638331",  "longitude" : "140.8835212",  "name" : "宮城県仙台南高等学校",  "address" : "仙台市太白区根岸町14-1",  },
	{  "id" : "231",  "latitude" : "38.23988854",  "longitude" : "140.840662",  "name" : "東北郵政研修センター",  "address" : "仙台市太白区八木山本町2-11-1",  },
	{  "id" : "232",  "latitude" : "38.24545622",  "longitude" : "140.862441",  "name" : "仙台城南高等学校グラウンド",  "address" : "仙台市太白区八木山香澄町19-212",  },
	{  "id" : "233",  "latitude" : "38.22370745",  "longitude" : "140.8166036",  "name" : "宮城大学食産業学部",  "address" : "仙台市太白区旗立2-2-1",  },
	{  "id" : "234",  "latitude" : "38.24442181",  "longitude" : "140.8245203",  "name" : "東北工業大学青葉山総合グラウンド",  "address" : "仙台市太白区鈎取字御堂平37",  },
	{  "id" : "235",  "latitude" : "38.22826308",  "longitude" : "140.891852",  "name" : "八本松公園",  "address" : "仙台市太白区八本松2-1-64外",  },
	{  "id" : "236",  "latitude" : "38.19832044",  "longitude" : "140.8998638",  "name" : "中田中央公園",  "address" : "仙台市太白区東中田5-13",  },
	{  "id" : "237",  "latitude" : "38.33422941",  "longitude" : "140.8720665",  "name" : "将監公園",  "address" : "仙台市泉区将監10-28-117",  },
	{  "id" : "238",  "latitude" : "38.31316014",  "longitude" : "140.8339039",  "name" : "長命ケ丘公園",  "address" : "仙台市泉区長命ケ丘5-14-2外",  },
	{  "id" : "239",  "latitude" : "38.32789522",  "longitude" : "140.9039995",  "name" : "東北学院大学泉キャンパス",  "address" : "仙台市泉区天神沢2-1-1",  },
	{  "id" : "240",  "latitude" : "38.32839295",  "longitude" : "140.9234991",  "name" : "宮城県泉松陵高等学校",  "address" : "仙台市泉区鶴が丘4-26-1",  },
	{  "id" : "241",  "latitude" : "38.30820863",  "longitude" : "140.881955",  "name" : "黒松二丁目公園",  "address" : "仙台市泉区黒松2-2-30外",  },
	{  "id" : "242",  "latitude" : "38.29332693",  "longitude" : "140.8990205",  "name" : "南光台南二丁目公園",  "address" : "仙台市泉区南光台南2-1-350",  },
	{  "id" : "243",  "latitude" : "38.29305516",  "longitude" : "140.8908622",  "name" : "南光台三丁目公園",  "address" : "仙台市泉区南光台3-1 地内",  },
	{  "id" : "244",  "latitude" : "38.32690095",  "longitude" : "140.8784845",  "name" : "泉中央公園",  "address" : "仙台市泉区泉中央2-18-3",  },
	{  "id" : "245",  "latitude" : "38.26867105",  "longitude" : "140.8523531",  "name" : "宮城県宮城第一高等学校",  "address" : "仙台市青葉区八幡1-6-2",  },
	{  "id" : "246",  "latitude" : "38.27513451",  "longitude" : "140.7858956",  "name" : "宮城広瀬高等学校",  "address" : "仙台市青葉区落合4-4-1",  },
	{  "id" : "247",  "latitude" : "38.30715665",  "longitude" : "140.8411438",  "name" : "川平三丁目東公園",  "address" : "仙台市青葉区川平3-14-2",  },
	{  "id" : "248",  "latitude" : "38.27519511",  "longitude" : "140.836892",  "name" : "国見コミュテニィ広場",  "address" : "仙台市青葉区国見5丁目9番街区",  },
	{  "id" : "249",  "latitude" : "38.30043376",  "longitude" : "140.8805819",  "name" : "台原森林公園",  "address" : "仙台市青葉区北根地内",  },
	{  "id" : "250",  "latitude" : "38.26225761",  "longitude" : "140.8618371",  "name" : "西公園",  "address" : "仙台市青葉区桜ケ岡公園",  },
	{  "id" : "251",  "latitude" : "38.25783935",  "longitude" : "140.9025395",  "name" : "宮城野原公園総合運動場",  "address" : "仙台市宮城野区宮城野2-11-6",  },
	{  "id" : "252",  "latitude" : "38.26067545",  "longitude" : "140.8970328",  "name" : "榴岡公園",  "address" : "仙台市宮城野区五輪1",  },
	{  "id" : "253",  "latitude" : "38.22887716",  "longitude" : "140.8978968",  "name" : "広瀬川若林緑地",  "address" : "仙台市若林区若林地先",  },
	{  "id" : "254",  "latitude" : "38.22590993",  "longitude" : "140.9033425",  "name" : "広瀬川中河原緑地",  "address" : "仙台市若林区南小泉字河原地先",  },
	{  "id" : "255",  "latitude" : "38.22947199",  "longitude" : "140.895365",  "name" : "広瀬川八本松緑地",  "address" : "仙台市太白区八本松地先",  },
	{  "id" : "256",  "latitude" : "38.22453477",  "longitude" : "140.9021205",  "name" : "広瀬川飯田緑地",  "address" : "仙台市太白区飯田字河原95-1外",  },
	{  "id" : "257",  "latitude" : "38.22559066",  "longitude" : "140.8578044",  "name" : "三神峯公園",  "address" : "仙台市太白区三神峯1",  },
	{  "id" : "258",  "latitude" : "38.31998371",  "longitude" : "140.8764907",  "name" : "七北田公園",  "address" : "仙台市泉区七北田字赤生津外",  },
	{  "id" : "259",  "latitude" : "38.26359002",  "longitude" : "141.0049558",  "name" : "日鐵住金建材　津波避難タワー",  "address" : "仙台市宮城野区港1-3-1",  },
	{  "id" : "260",  "latitude" : "38.20332093",  "longitude" : "140.9702308",  "name" : "冒険広場",  "address" : "仙台市若林区井土字小午沼地内",  },
	{  "id" : "261",  "latitude" : "38.22782656",  "longitude" : "140.9533032",  "name" : "避難階段1",  "address" : "仙台市若林区荒井字神屋敷西地内",  },
	{  "id" : "262",  "latitude" : "38.22416359",  "longitude" : "140.951751",  "name" : "避難階段2",  "address" : "仙台市若林区荒井字藤田地内",  },
	{  "id" : "263",  "latitude" : "38.21126825",  "longitude" : "140.9464356",  "name" : "避難階段3",  "address" : "仙台市若林区三本塚字赤沼西地内",  },
	{  "id" : "264",  "latitude" : "38.2038131",  "longitude" : "140.9438694",  "name" : "避難階段4",  "address" : "仙台市若林区二木字二木前地内",  },
	{  "id" : "265",  "latitude" : "38.19820194",  "longitude" : "140.9417887",  "name" : "避難階段5",  "address" : "仙台市若林区今泉字中村東地内",  },
	{  "id" : "266",  "latitude" : "38.26642135",  "longitude" : "140.9927118",  "name" : "キリンビール事務所棟",  "address" : "仙台市宮城野区港2-2-1",  },
	{  "id" : "267",  "latitude" : "38.26749571",  "longitude" : "140.9849646",  "name" : "仙台冷蔵倉庫仙台港第三センター倉庫棟",  "address" : "仙台市宮城野区蒲生字須賀前8",  },
];